city,lat,lng
Jakarta,-6.175,106.8275
Manila,14.5958,120.9772
Bangkok,13.7525,100.4942
Ho Chi Minh City,10.7756,106.7019
Kuala Lumpur,3.1478,101.6953
Hanoi,21.0,105.85
Surabaya,-7.2458,112.7378
Singapore,1.3,103.8
Medan,3.5894,98.6739
Quezon City,14.65,121.0475
Malang,-7.98,112.62
Bekasi,-6.2349,106.9923
Bekasi Kota,-6.2333,107.0
Tangerang,-6.1703,106.6403
Phnom Penh,11.5694,104.9211
Depok,-6.394,106.8225
Haiphong,20.8651,106.6838
Zamboanga City,6.9042,122.0761
Davao,7.07,125.6
Caloocan City,14.65,120.97
Semarang,-6.99,110.4225
Palembang,-2.9861,104.7556
Sangereng,-6.2889,106.7181
Makassar,-5.1619,119.4362
Canagatan,18.0,121.8
Bagam,1.13,104.0531
Sumedang,-6.84,107.9208
Cần Thơ,10.0333,105.7833
Chiang Mai,18.7953,98.9986
Batam Centre,1.13,104.0531
Cilacap,-7.7167,109.017
Bandar Lampung,-5.45,105.2667
Bogor,-6.5966,106.7972
Biên Hòa,10.95,106.8167
Thủ Đức,10.8266,106.7609
Quảng Hà,15.9333,108.2667
Pekanbaru,0.5092,101.4453
Cebu City,10.32,123.75
Vientiane,17.98,102.63
Seberang Jaya,5.4083,100.3695
Padang,-0.95,100.3531
Antipolo,14.5842,121.1763
Taguig City,14.52,121.05
Klang,3.0333,101.45
Ipoh,4.5972,101.075
Denpasar,-8.65,115.2167
Samarinda,-0.5,117.1378
Pasig City,14.5605,121.0765
Cagayan de Oro,8.48,124.65
Valenzuela,14.7,120.98
George Town,5.4144,100.3292
Dasmariñas,14.33,120.94
General Santos,6.12,125.17
City of Parañaque,14.5008,120.9915
Tasikmalaya,-7.3161,108.1975
Bacoor,14.4624,120.9645
Banjarmasin,-3.32,114.5925
Tondo,14.617,120.967
Huế,16.4667,107.5792
San Jose del Monte,14.8139,121.0453
Petaling Jaya,3.0972,101.6444
Makati City,14.5567,121.0214
Jambi,-1.59,103.61
Tân An,10.905,106.6994
Pontianak,-0.0206,109.3414
Serang,-6.12,106.1503
Kuantan,3.8167,103.3333
Las Piñas City,14.45,120.98
Bacolod,10.6765,122.9509
Balikpapan,-1.2768,116.8277
Cimahi,-6.8712,107.5548
Shah Alam,3.0722,101.5167
Iloilo,10.72,122.57
Surakarta,-7.5667,110.8167
Sungai Petani,5.65,100.5
Muntinlupa City,14.38,121.05
City of Calamba,14.22,121.17
Bắc Ninh,21.1833,106.05
Hải Dương,20.9397,106.3306
Lapu-Lapu City,10.3127,123.9488
Johor Bahru,1.4556,103.7611
Imus,14.4297,120.9367
Lembok,-8.565,116.351
Kota Bharu,6.1333,102.25
Vinh,18.6667,105.6667
Kupang,-10.1702,123.6077
Nakhon Ratchasima,14.975,102.1
Tân Uyên,11.0508,106.7636
Angeles City,15.1472,120.5847
Manado Light,1.4931,124.8413
Marikina City,14.65,121.1
Melaka,2.1944,102.2486
Manado,1.4931,124.8413
Kota Kinabalu,5.975,116.0725
General Trias,14.38,120.88
Rodriguez,14.72,121.12
Pasay City,14.55,121.0
Bandung,-6.912,107.6097
Mandaluyong City,14.58,121.03
Yogyakarta,-7.8014,110.3644
Seremban,2.7222,101.9417
Santa Rosa,14.32,121.12
Jayapura,-2.533,140.717
Khon Kaen,16.4333,102.8333
Mataram,-8.5833,116.1167
Biñan,14.33,121.08
Đà Lạt,11.9417,108.4383
Hat Yai,7.0167,100.4667
Sandakan,5.8333,118.1167
Thanh Hóa,19.8075,105.7764
Nha Trang,12.245,109.1917
Sampaloc,14.6031,121.0022
Cilegon,-6.0027,106.0112
Taytay,14.5692,121.1325
Tarlac City,15.4869,120.59
Palu,-0.895,119.8594
Malabon,14.66,120.96
Cainta,14.57,121.12
Lipa City,13.9411,121.1622
Butuan,8.948,125.543
Cibinong,-6.485,106.842
Baguio City,16.4119,120.5933
Mandaue City,10.33,123.93
Iligan,8.23,124.25
Bengkulu,-3.7956,102.2592
Cabuyao,14.275,121.125
San Fernando,15.03,120.68
Nam Định,20.42,106.1683
Batangas,13.83,121.0
Ambon,-3.7,128.1667
Chon Buri,13.3611,100.985
Naga City,13.6244,123.1864
Vũng Tàu,10.3833,107.1167
Buôn Ma Thuột,12.6667,108.05
Dumai,1.6667,101.45
Kendari,-3.9907,122.5086
Thái Nguyên,21.6,105.85
Phatthaya,12.9357,100.889
Cabanatuan City,15.4908,120.9678
Si Racha,13.174,100.93
San Pedro,14.3583,121.0583
Kuching,1.5575,110.3439
Cotabato,7.22,124.25
Cimanggis,-6.3645,106.8591
Kluang,2.0336,103.3194
Thủ Dầu Một,10.9667,106.65
Sukabumi,-6.9181,106.9315
An Nhơn,13.917,109.083
Cà Mau,9.1833,105.15
Muar,2.05,102.5667
Binangonan,14.4514,121.1919
Pasir Gudang,1.5028,103.9356
Tanza,14.3944,120.8531
Quy Nhơn,13.7667,109.2333
Karawang,-6.3125,107.295
Nghi Sơn,19.417,105.75
Puerto Princesa,9.75,118.75
Binjai,3.5986,98.4803
Jember,-8.1727,113.6873
Pekalongan,-6.8833,109.6667
Cirebon,-6.7071,108.5574
Tagum,7.4478,125.8078
Sorong,-0.8667,131.25
Silang,14.2306,120.975
Pondokaren,-6.2811,106.7019
Mabalacat,15.22,120.58
Tegal,-6.8675,109.1375
Santa Maria,14.82,120.96
San Pablo,14.07,121.325
Lucena,13.93,121.62
Mamuju,-2.6833,118.9
Long Xuyên,10.3736,105.4458
Pematangsiantar,2.96,99.06
Việt Trì,21.3,105.4333
Pasarkemis,-6.1703,106.53
San Mateo,14.6969,121.1219
Majene,-3.5403,118.9707
Mỹ Tho,10.35,106.35
Thái Bình,20.4461,106.3422
Xiangkhoang,19.4167,103.5
Talisay,10.25,123.83
Malolos,14.8433,120.8114
Olongapo,14.83,120.28
Quảng Ngãi,15.1167,108.8
Ấp Đa Lợi,11.9333,108.4667
Nonthaburi,13.8667,100.5167
Kuala Terengganu,5.3292,103.1361
Marilao,14.7581,120.9481
Kediri,-7.8111,112.0047
Tacloban,11.24,125.0
Rạch Giá,10.0167,105.0833
Palangkaraya,-2.21,113.92
Sibu,2.2878,111.8308
Navotas,14.6667,120.9417
Taiping,4.85,100.7333
Tuy Hòa,13.0819,109.295
Kajang,2.9931,101.7889
Banda Aceh,5.55,95.3175
Miri,4.3925,113.9861
Teluk Intan,4.0333,101.0167
Purwokerto,-7.4278,109.2417
Phú Yên,21.4156,105.8739
Ormoc,11.0106,124.6075
Sơn Tây,21.1333,105.5
Singkawang,0.9,108.9833
Kulai,1.6667,103.6
Meycauayan,14.73,120.95
Padangsidempuan,1.3786,99.2722
Cikupa,-6.4947,106.6511
Probolinggo,-7.75,113.2167
Beji,-6.3704,106.8176
Dili,-8.5536,125.5783
Sóc Trăng,9.6028,105.9736
Chí Linh,21.133,106.383
Pangkalpinang,-2.1333,106.1167
Bitung,1.4472,125.1978
Santo Tomas,14.08,121.18
Alor Setar,6.1183,100.3694
Batu,-7.872,112.525
Banjarbaru,-3.4425,114.8325
Valencia,7.9042,125.0928
Tân An,10.5333,106.4167
Sa Đéc,10.3,105.7667
Cao Lãnh,10.4672,105.6303
Trece Martires City,14.28,120.87
Pagadian,7.8272,123.4364
Bukit Mertajam,5.3655,100.4607
Legazpi City,13.13,123.73
Panabo,7.3,125.68
Ciputat,-6.3111,106.7619
Lubuklinggau,-3.2967,102.8617
Toledo,10.38,123.65
Marawi City,8.0031,124.285
Banjar,-7.3695,108.5414
San Carlos City,15.9281,120.3489
Phan Thiết,10.9333,108.1
Ternate,0.78,127.3819
Kinh Môn,21.033,106.5
Santa Ana,14.58,121.012
Tanjungpinang,0.9188,104.4554
Phủ Từ Sơn,21.1189,105.9611
Hà Tĩnh,18.3333,105.9
Tarakan,3.3,117.6333
Kabankalan,9.98,122.82
Vĩnh Long,10.25,105.9667
Lạng Sơn,21.8478,106.7578
Lahad Datu,5.03,118.34
Madiun,-7.63,111.5231
Martapura,-3.45,114.8333
Segamat,2.5111,102.8139
Koronadal,6.5,124.85
Tanauan,14.08,121.15
Gorontalo,0.5333,123.0667
Bago,10.5388,122.8384
Malaybalay,8.1564,125.1333
Digos,6.75,125.35
Prabumulih,-3.4328,104.2356
Calbayog City,12.07,124.6
Pasuruan,-7.6406,112.9065
Pak Kret,13.9125,100.4978
Padalarang,-6.8435,107.4779
Vĩnh Châu,9.333,106.0
Trảng Bàng,11.033,106.367
Tumpat,6.1667,102.1667
Pinrang,-3.7857,119.6522
Sorsogon,12.9742,124.0058
Lhokseumawe,5.1881,97.1403
Palopo,-3.0,120.2
Petarukan,-6.8961,109.4514
Singosari,-7.8925,112.6658
Quảng Yên,20.917,106.833
Tanjungbalai,2.97,99.8
Roxas City,11.5894,122.7511
Purwakarta,-6.5533,107.4472
Langsa,4.48,97.9633
Tebingtinggi,3.3194,99.1522
Cianjur,-6.82,107.1408
Rantau Prapat,2.3333,100.05
Salatiga,-7.3247,110.5444
Curug,-6.3711,106.8
Dagupan City,16.043,120.334
Bắc Giang,21.2667,106.2
Lubao,14.93,120.6
Mexico,15.07,120.72
Keningau,5.3333,116.1667
Hạ Long,20.95,107.0667
Mang La,14.3617,108.0083
Polomolok,6.22,125.07
General Mariano Alvarez,14.3,121.0
San Miguel,15.1458,120.9783
Metro,-5.1167,105.3
Surigao,9.7897,125.4958
Bảo Lộc,11.5481,107.8075
Concepcion,15.3249,120.6554
Baliuag,14.954,120.901
Phan Rang-Tháp Chàm,11.5667,108.9833
Sampit,-2.5333,112.95
Tuguegarao,17.6133,121.7303
Sawangan,-6.4086,106.7647
Baubau,-5.4667,122.633
Ungaran,-7.1381,110.405
Sariaya,13.97,121.53
Bontang,0.1333,117.5
Tân Phú,11.272,107.4367
Naic,14.32,120.77
Kidapawan,7.0083,125.0894
Đồng Hới,17.4831,106.5997
Trà Vinh,9.9333,106.35
Ninh Bình,20.2539,105.975
Cadiz,10.95,123.3
Ilagan,17.1489,121.8894
Bima,-8.46,118.7267
Châu Đốc,10.7,105.1167
Danao,10.53,123.93
Bạc Liêu,9.2833,105.7167
Capas,15.3372,120.59
Cẩm Phả,21.0167,107.3167
Tigaraksa,-6.2667,106.4667
Pandi,14.87,120.95
Singaraja,-8.1167,115.0833
San Jose,12.3528,121.0676
Poblacion,10.42,123.97
Vĩnh Yên,21.31,105.5967
Hòa Thành,11.2831,106.1297
Gò Công,10.3667,106.6667
Long Khánh,10.917,107.167
Minglanilla,10.245,123.7964
Đức Phổ,14.81,108.96
San Jose,15.8037,120.9991
Đồng Xoài,11.5169,106.8392
Mariveles,14.43,120.48
Saumlaki,-7.975,131.3075
Sagay,10.9,123.42
Santiago,16.68,121.55
Consolacion,10.4,123.95
Siem Reap,13.3622,103.8597
Mati,6.9483,126.2272
Hưng Yên,20.65,106.0667
Pageralam,-4.0167,103.25
Cam Ranh,11.902,109.2207
Pleiku,13.9833,108.0
Calapan,13.414,121.18
Calapan,13.414,121.18
Kisaran,2.9833,99.6125
Arayat,15.1493,120.7692
Urdaneta,15.9761,120.5711
Cinere,-6.3333,106.7833
Calabayan,16.77,121.78
Malasiqui,15.92,120.42
Tinipuka,-4.55,136.89
Bocaue,14.8,120.93
Tân Châu,10.7739,105.2369
Subang,-6.5714,107.7614
Tabaco,13.35,123.73
Porac,15.0719,120.5419
Ozamiz City,8.15,123.85
Batu Pahat,1.8522,102.9372
Giá Rai,9.25,105.417
Payatas,14.7099,121.0997
Tanay,14.4972,121.2864
Teluknaga,-6.0989,106.6381
Dipolog,8.5872,123.3408
Candelaria,13.9311,121.4233
Gunungsitoli,1.2833,97.6167
La Trinidad,16.46,120.59
Jolo,6.0,121.0
Rangkasbitung,-6.3667,106.25
Gingoog,8.82,125.1
Phủ Lý,20.5411,105.9139
Nasugbu,14.07,120.63
Carcar,10.12,123.63
Batang,-6.9081,109.7304
Norzagaray,14.92,121.05
Floridablanca,14.974,120.528
Tây Ninh,11.3678,106.1189
Dumaguete City,9.3103,123.3081
Ba Đồn,17.7547,106.4231
Gubeng,-7.2729,112.7493
Daraga,13.1619,123.6939
San Andres,14.5739,121.0039
Hagonoy,14.83,120.73
Batu Gajah,4.4667,101.05
Long Bình,10.9458,106.8775
Naga,10.22,123.75
San Carlos,10.4929,123.4095
Adonara,-8.25,123.15
Talavera,15.5839,120.9189
Blitar,-8.1,112.15
Surat Thani,9.1397,99.3306
Lào Cai,22.4806,103.975
Angono,14.5234,121.1536
Silay,10.8,122.97
City of Isabela,6.7,121.97
Udon Thani,17.4167,102.75
Mojokerto,-7.4722,112.4336
Battambang,13.1,103.2
Parepare,-4.0167,119.6236
Bamban,15.2742,120.5669
Guagua,14.97,120.63
Santo Tomas,7.53,125.62
Rosario,13.846,121.206
Tuaran,6.1833,116.2333
Garut,-7.2167,107.9
Buôn Hồ,12.8544,108.2703
Guimba,15.6606,120.765
Santa Cruz,14.5998,120.9802
San Juan,14.604,121.03
San Fernando,16.62,120.32
Payakumbuh,-0.2333,100.6333
Cam Ranh,11.9136,109.1369
Magelang,-7.4667,110.2167
Leuwiliang,-6.5742,106.632
Bến Tre,10.2333,106.3833
Magalang,15.22,120.67
Savannakhet,16.55,104.75
Cai Lậy,10.417,106.083
Paleng,-1.4,123.1667
Santa Cruz,14.28,121.42
Gapan,15.3122,120.9489
Pati,-6.7415,111.0347
Bayawan,9.37,122.8
Bayan Lepas,5.2833,100.2667
Indramayu,-6.3528,108.3242
Tam Kỳ,15.5667,108.4833
Hội An,15.8833,108.3333
Hòa Bình,20.8133,105.3383
Chơn Thành,11.4292,106.6572
Tabuk,17.4069,121.4425
Thành Phố Uông Bí,21.0356,106.7644
Kotamobagu,0.7333,124.3167
Kỳ Anh,18.0678,106.2967
Poblacion,14.3854,121.029
Ban Bang Pu Mai,13.5441,100.6175
Đông Hòa,12.9931,109.3314
Pelabuhanratu,-6.9878,106.5439
Candaba,15.0933,120.8283
Port Dickson,2.5167,101.8
Calumpit,14.92,120.77
Soasio,0.6833,127.4
Kampong Cham,11.987,105.462
Dinalupihan,14.88,120.47
Malita,6.4108,125.6144
Ligao,13.22,123.52
Banyuwangi,-8.2186,114.3669
Midsayap,7.19,124.53
Apalit,14.9496,120.7587
Soreang,-7.0372,107.5167
Samal,7.05,125.73
Datu Odin Sinsuat,7.1889,124.1839
Himamaylan,10.1,122.87
Bongao,5.0292,119.7731
San Ildefonso,15.0789,120.9419
Tarogong,-7.215,107.8856
Los Baños,14.17,121.22
Rawajaya,-7.58,108.8828
Rawasari,-7.5733,108.8833
Iriga City,13.4231,123.4122
Plaridel,14.8869,120.8569
San Juan,13.826,121.396
Bintulu,3.1733,113.0433
Kuningan,-6.9764,108.4844
Tawau,4.2583,117.8944
Guiguinto,14.83,120.88
Bukittinggi,-0.3056,100.3692
Manolo Fortich,8.3675,124.8656
Mangaldan,16.07,120.4039
Libmanan,13.6964,123.06
Tayabas,14.02,121.58
Subic,14.8769,120.2328
Baybay,10.68,124.8
Daet,14.1142,122.9564
Laoag,18.1978,120.5936
Baleraja,-6.5167,107.9169
Santamesa,14.6,121.0167
Rosario,14.42,120.85
Quezon,7.7306,125.1
Naujan,13.3233,121.3028
Glan,5.82,125.2
Bayugan,8.71,125.75
Tacurong,6.68,124.67
Labo,14.1561,122.8294
Sầm Sơn,19.7333,105.9
Talisay,10.73,122.97
Pulilan,14.902,120.849
Bà Rịa,10.4992,107.1675
Móng Cái,21.5333,107.9667
Cawayan,9.97,122.62
Maramag,7.7631,125.005
Lingayen,16.0167,120.2333
Kawit,14.43,120.9
Manokwari,-0.8667,134.0833
La Gi,10.66,107.7719
Bagong Silangan,14.7094,121.1
Tenggarong,-0.4,116.9667
Catbalogan,11.78,124.88
Nakhon Si Thammarat,8.4364,99.9631
Tiaong,13.95,121.32
Carmona,14.32,121.05
Raba,-8.4614,118.7469
Sơn La,21.327,103.9141
Bình Hòa,10.9061,106.7308
Sông Cầu,13.55,109.2
Bình Long,11.6527,106.6093
Maluñgun,6.27,125.28
Bulan,12.6697,123.8758
Sultan Kudarat,7.23,124.25
Tagbilaran City,9.65,123.85
Tuyên Quang,21.8167,105.2167
Masbate,12.27,123.58
Tam Điệp,20.1556,105.9181
Balanga,14.68,120.53
Sindangan,8.2386,122.9986
Biak,-1.18,136.08
San Rafael,14.95,120.97
Tanjungpandan,-2.75,107.75
Paniqui,15.6681,120.5789
Parang,7.3744,124.2686
Guihulñgan,10.12,123.27
Ban Mangkon,13.6138,100.6104
Simanggang,1.2353,111.4697
Sungai Penuh,-2.0589,101.3914
Ngã Bảy,9.8164,105.8197
Hồng Ngự,10.833,105.283
Santa Cruz,6.83,125.42
Salavan,15.7167,106.4167
Bỉm Sơn,20.0781,105.8603
Sungailiat,-1.8561,106.1192
Cavite City,14.48,120.9
Yên Bái,21.7,104.8667
Calasiao,16.02,120.37
Lamitan,6.65,122.13
Talipao,5.976,121.1087
Nabire,-3.3682,135.4964
Ciamis,-7.3281,108.3336
Putatan,14.3984,121.0364
Alaminos,16.1553,119.9808
Bislig,8.2133,126.3161
Malate,14.5642,120.9913
Pili,13.5542,123.2753
Sisophon,13.5833,102.9833
Paoy Paet,13.65,102.5667
Oton,10.6931,122.4736
M’lang,6.95,124.88
Catarman,12.4994,124.6328
Isulan,6.63,124.6
Vị Thanh,9.7833,105.4708
Sumber,-6.7544,108.4858
Tomohon,1.325,124.8389
Escalante,10.83,123.5
Balayan,13.93,120.73
Hương Thủy,16.4,107.6889
Balamban,10.47,123.78
Labuan,5.3,115.22
Sibolga,1.74,98.78
Lopez,13.884,122.2604
Gerona,15.6069,120.5986
Monkayo,7.8239,126.0536
Đông Hà,16.8303,107.0972
Simeulu,2.63,96.09
Lawang,-7.83,112.7
Daanbantayan,11.25,124.0
Lemery,13.92,120.88
Indanan,6.0,120.97
Tual,-5.6368,132.7508
Palimbang,6.22,124.2
Sablayan,12.8428,120.775
Tatakan,-6.1116,106.1036
Sepatan,-6.1143,106.5784
Santa Barbara,16.0031,120.4008
Raub,3.7952,101.856
Phú Thọ,21.4003,105.2225
Salaman,6.63,124.07
Cisauk,-6.3333,106.65
Bauan,13.7917,121.0085
Pantukan,7.1269,125.8975
Pongotan,7.1269,125.8975
Pinamalayan,13.0364,121.4889
Victorias,10.9,123.08
Marudi,4.1833,114.3167
Compostela,7.67,126.08
Ipil,7.7822,122.5867
Surallah,6.37,124.73
Pamekasan,-7.1574,113.4718
Maumere,-8.6222,122.2122
Polangui,13.2922,123.4856
Banga,6.3,124.78
Kalibo,11.7072,122.37
Hinigaran,10.27,122.85
Calabanga,13.7089,123.2161
Passi,11.1,122.63
Murcia,10.6,123.03
Bogo,11.02,124.0
Solana,17.6522,121.6914
Echague,16.7056,121.6761
Aroroy,12.5125,123.3989
Prosperidad,8.61,125.92
Alabel,6.1023,125.2868
Ban Laem Chabang,13.0833,100.8833
Makilala,6.97,125.08
Baggao,17.9347,121.7733
Calauan,14.15,121.32
Baras,14.52,121.27
Ende,-8.8333,121.65
Western Bicutan,14.5094,121.0381
Maasin,10.13,124.85
San Fabian,16.15,120.45
Calaca,13.93,120.8131
Camiling,15.6867,120.4131
Binmaley,16.0323,120.269
Nabua,13.4083,123.375
Nakhon Sawan,15.7133,100.1353
Karanganyar,-7.6033,110.9778
Bangkalan,-7.0253,112.7519
Bantayan,11.2,123.73
Cabiao,15.2522,120.8575
Guinobatan,13.18,123.6
Pariaman,-0.6264,100.1178
Batarasa,8.67,117.62
Tagaytay,14.1,120.93
Dapitan,8.6549,123.4243
Pandacan,14.594,121.007
Sumenep,-7.0049,113.8496
Nabunturan,7.6008,125.9656
Bais,9.5907,123.1213
Science City of Muñoz,15.7153,120.9039
Bolinao,16.3881,119.8947
Atambua,-9.1061,124.8925
Taytay,10.82,119.52
Phúc Yên,21.2333,105.7
Maco,7.3619,125.8553
Siaton,9.07,123.03
Kampong Trach,10.55,104.4667
San Antonio,15.3078,120.8533
Mabinay,9.73,122.92
Tanjay,9.52,123.16
Calatrava,10.6,123.48
Cukai,4.2332,103.4479
Carmen,7.3606,125.7064
Jepara,-6.5333,110.6667
Ubay,10.056,124.4729
Banco Filipino International Village,14.4499,120.9996
Siasi,5.5462,120.8145
Watampone,-4.5386,120.3297
An Khê,13.9531,108.6569
Matalam,7.08,124.9
Buhi,13.4347,123.5167
Lambunao,11.05,122.48
Bulacan,14.7928,120.8789
Kapalong,7.5854,125.7052
San Francisco,8.51,125.98
Malapatan,5.97,125.28
Barili,10.12,123.53
Butterworth,5.3942,100.3664
Cabadbaran,9.12,125.53
Tagoloan,8.53,124.75
San Jose,13.8772,121.105
Paco,14.583,120.983
Poblacion,6.8,124.63
Patikul,6.07,121.1
Xai,20.6914,101.9861
Robles,10.35,123.07
San Isidro,14.4685,121.0118
Mangatarem,15.7874,120.2921
Ban Talat Rangsit,13.9833,100.6167
Ban Nong Prue,12.9228,100.9375
Jaen,15.3392,120.9069
Carmen,7.2,124.78
Ubon Ratchathani,15.2281,104.8594
Subulussalam,2.6422,98.0042
Nakhon Pathom,13.8206,100.0625
Toboali,-2.9997,106.4656
Pagbilao,13.972,121.687
Bauang,16.53,120.33
Pototan,10.95,122.63
Limay,14.5619,120.5983
Bamban,15.2742,120.5669
Argao,9.88,123.6
Macabebe,14.9081,120.7156
Mandiraja Kulon,-7.4722,109.5133
Narra,9.28,118.42
Pakxé,15.1167,105.7833
Phuket,7.8881,98.3975
Santa Catalina,9.3331,122.8658
Hermosa,14.83,120.5
Ban Tha Khlong,14.0894,100.6236
Bustos,14.95,120.92
Kabacan,7.12,124.82
Umingan,15.9289,120.8419
Talakag,8.2319,124.6025
Balagtas,14.8145,120.9085
Bongabong,12.7469,121.4881
Virac,13.58,124.23
Ninh Hòa,12.4917,109.1258
Tuban,-6.9,112.05
Palo,11.1583,124.9917
Infanta,14.7425,121.6494
Manaoag,16.0439,120.4856
Solok,-0.7997,100.6661
Pilar,12.9244,123.6756
Sentani,-2.5636,140.5146
Xaignabouli,19.25,101.75
Santa Rosa,15.4239,120.9389
Cửa Lô,18.8167,105.7167
Pinamungahan,10.27,123.58
Libon,13.3,123.4333
Bugallon,15.92,120.18
Ubud,-8.5069,115.2624
Pozorrubio,16.12,120.55
Esperanza,6.7167,124.5167
Dalaguete,9.7612,123.5349
Balingasag,8.75,124.78
Brookes Point,8.78,117.83
Majalengka,-6.8353,108.2278
Dumangas,10.83,122.72
Alicia,16.7787,121.6972
Dĩ An,10.9039,106.7678
Cao Bằng,22.6667,106.2583
Tupi,6.33,124.95
Lala,7.97,123.75
Jose Abad Santos,5.92,125.65
Bagan Si Api-api,2.1667,100.8167
Bula,13.4694,123.2775
Catanauan,13.5917,122.325
Hương Trà,16.4675,107.5181
Carles,11.57,123.13
San Dionisio,14.4839,120.9925
Bacacay,13.2925,123.7917
Sipalay,9.75,122.4
Oroquieta,8.48,123.8
San Fernando,10.17,123.7
Camalig,13.13,123.67
Long Mỹ,9.6814,105.5708
Borongan,11.6094,125.4361
Gumaca,13.921,122.1002
Calauag,13.9575,122.2875
Pililla,14.48,121.3
Parang,5.92,120.92
Binalbagan,10.2,122.87
Goa,13.6983,123.4889
Talibon,10.12,124.28
Morong,14.5119,121.2389
Sihanoukville,10.6333,103.5
Mauban,14.1911,121.7308
Alabang,14.4184,121.0385
Samraong,14.25,103.5833
Phitsanulok,16.8158,100.2636
Tumauini,17.27,121.8
Chiang Rai,19.9094,99.8275
Poblacion,10.25,123.95
Pavia,10.775,122.5417
Aliaga,15.5036,120.845
Orani,14.8,120.53
Ban Houayxay,20.2631,100.4336
Rizal,15.71,121.1047
Tinambac,13.8183,123.3244
San Antonio,14.4656,121.0311
Waingapu,-9.65,120.2667
Thakhèk,17.4,104.8
Điện Biên Phủ,21.3833,103.0167
Phú Quốc,10.2289,103.9669
Raha Tiga,-4.8311,122.7239
Raha,-4.838,122.7209
Roxas,10.3197,119.3408
Victoria,15.5781,120.6819
Don Carlos,7.6808,124.9953
Cawayan,11.9303,123.7689
San Pascual,13.8,121.03
Ko Samui,9.5,100.0
La Paz,15.4431,120.7289
Bagumbayan,6.5339,124.5633
Buenavista,8.97,125.41
Aparri,18.3575,121.6372
Indang,14.2,120.88
Alamada,7.3868,124.5534
San Leonardo,15.3611,120.9622
Mamungan,8.12,124.22
Tangub,8.0667,123.75
Nghĩa Lộ,21.5758,104.5192
Sipocot,13.7675,122.9783
Tuburan,10.73,123.83
Miagao,10.6442,122.2352
Cuyapo,15.7778,120.6608
Putrajaya,2.93,101.69
Castillejos,14.93,120.2
Bayombong,16.48,121.15
Santa Barbara,10.8231,122.5344
Taman Senai,1.5833,103.6333
Bay,14.18,121.28
Pikit,7.05,124.67
Lupon,6.8969,126.0117
Bongabon,15.6321,121.1448
Janiuay,10.95,122.5
Botolan,15.2896,120.0245
Rosales,15.8944,120.6328
La Carlota,10.42,122.92
San Mateo,16.88,121.58
Opol,8.52,124.57
Kampung Tengah,1.4836,101.9561
Bengkalis,1.4897,102.0797
Ban Suan,13.3616,100.9795
Oas,13.2589,123.4953
Agoo,16.322,120.3647
Taman Johor Jaya,1.5333,103.8167
Lantapan,8.0,125.0233
Lahat,-3.8,103.5333
Coron,12.0,120.2
Roxas,17.12,121.62
Kiamba,5.98,124.62
Wamena,-4.0975,138.9511
San Remigio,11.0,123.95
Lutayan,6.6,124.85
Angat,14.9281,121.0293
Singaparna,-7.3497,108.1106
Solano,16.5183,121.1811
Quezon,9.235,117.9967
Tigbauan,10.6747,122.3776
Pateros,14.5448,121.0671
San Jose,10.7433,121.9411
Villasis,15.9,120.58
Sumbawa Besar,-8.5,117.4167
Maasin,5.87,125.0
Nagcarlan,14.1364,121.4165
Meulaboh,4.1333,96.1167
Isabela,10.2,122.98
Hilongos,10.37,124.75
Malvar,14.0417,121.1583
Sibulan,9.35,123.28
Saravia,10.88,122.97
Atimonan,14.0036,121.9199
Ambarawa,-7.2667,110.4
Teresa,14.5586,121.2083
Tuao,17.735,121.4553
Santa Cruz,15.77,119.92
Songkhla,7.2061,100.5967
Sibalom,10.7883,122.0175
Jose Pañganiban,14.2922,122.6928
Ban Lam Sam Kaeo,13.9728,100.6511
San Fernando,7.9178,125.3286
Calinog,11.13,122.5
Moncada,15.7331,120.5725
Tân Phước Khánh,11.0,106.7167
Bansalan,6.78,125.22
Champasak,14.8569,105.7533
Tandag,9.0789,126.1986
Kapatagan,7.9,123.77
Aurora,13.35,122.52
Rayong,12.6742,101.2789
Cambanugoy,7.5386,125.7508
Saraburi,14.5286,100.9114
Santa Ana,15.0939,120.7681
Itogon,16.37,120.67
Baao,13.4535,123.3654
Taal,13.88,120.93
Candon,17.1958,120.4489
Sawahlunto,-0.6667,100.7833
Gia Nghĩa,11.9833,107.7
Tunasan,14.3725,121.0364
Yala,6.5425,101.2831
Abuyog,10.7458,125.0122
Cabatuan,10.88,122.48
Santo Domingo,15.59,120.8786
Tulunan,6.83,124.88
Jinoba-an,9.6018,122.4668
Orion,14.6206,120.5817
Kresek,-6.1314,106.38
Castilla,12.9553,123.8764
Laoang,12.57,125.02
Trang,7.5575,99.6103
Tigaon,13.6319,123.4975
Matanao,6.75,125.23
Gubat,12.9189,124.1231
Rosario,16.23,120.48
Paracale,14.2797,122.7869
San Mariano,16.98,122.02
Samut Sakhon,13.5486,100.2775
Malay,11.8997,121.9094
Kratie,12.48,106.03
Obando,14.7083,120.9375
Sigaboy,6.6536,126.0717
Ilog,10.03,122.77
Ragay,13.8217,122.7897
Kananya,11.1856,124.5597
Medellin,11.1286,123.9622
Maimbung,5.93,121.03
Hua Hin,12.5686,99.9578
Esperanza,8.68,125.65
Alfonso,14.1379,120.8552
Irosin,12.705,124.0319
San Francisco,10.65,124.35
San Simon,14.998,120.78
Mansalay,12.5204,121.4385
Upi,7.0106,124.1629
Gattaran,18.0611,121.6453
Roxas,12.58,121.5
Ban Rangsit,14.0167,100.75
Canlaon,10.38,123.2
El Salvador,8.57,124.52
Calatagan,13.8322,120.6322
Baganga,7.5752,126.5585
San Luis,15.04,120.7919
Ibaan,13.8176,121.133
Palompon,11.05,124.38
Pursat,12.5333,103.9167
Naval,11.58,124.45
Barotac Nuevo,10.9,122.7
Masantol,14.9,120.72
New Corella,7.5866,125.8237
Cogan,10.58,123.97
Dumanjog,10.05,123.48
Asingan,16.0023,120.6695
Milagros,12.2192,123.5089
Santa Maria,6.55,125.47
Tanauan,11.12,125.02
Buluan,6.7154,124.7854
Boac,13.45,121.83
Cupang,14.4315,121.0486
Alangalang,11.2061,124.8478
Uson,12.2253,123.7834
Jasaan,8.65,124.75
Ban Bang Kaeo,13.6371,100.6636
Machang,5.7608,102.2158
Hagonoy,6.68,125.3
Xam Nua,20.415,104.048
Limbang,4.7592,115.0067
Pinagkaisahan,14.5229,121.0555
Bebandem,-8.4046,115.5395
Lagonoy,13.7353,123.5208
Basey,11.2817,125.0683
Barabai,-2.5833,115.3833
Pangantocan,7.8331,124.8294
Ramon,16.78,121.53
Tiwi,13.4585,123.6805
Binalonan,16.05,120.6
Sucat,14.46,121.05
Placer,11.8689,123.9167
Lian,14.03,120.65
Libungan,7.25,124.52
Magsaysay,6.77,125.18
Sarikei,2.1256,111.5219
Khlong Luang,14.0647,100.6458
Diffun,16.5936,121.5025
Lower Bicutan,14.5033,121.0642
General Tinio,15.35,121.05
Poblacion,10.47,123.97
Bambang,16.3872,121.1075
Paombong,14.8311,120.7892
Iba,15.33,119.98
Mulanay,13.5222,122.4042
Kuala Kapuas,-3.0013,114.3916
Hà Giang,22.8333,104.9833
Urbiztondo,15.8227,120.3295
Batac,18.0554,120.5649
Tatalon,14.6242,121.0153
Asturias,10.5679,123.7172
Taliwang,-8.7336,116.8667
Mercedes,14.1093,123.0109
Kronjo,-6.0667,106.4167
Manapla,10.958,123.123
Lampang,18.3,99.5
Dompu,-8.5364,118.4633
Santa Cruz,13.48,122.03
Carigara,11.3,124.68
Sara,11.25,123.02
Pila,14.23,121.37
Masinloc,15.53,119.95
Pontevedra,10.37,122.88
Trento,8.05,126.06
Tapas,11.2622,122.5369
San Isidro,15.3097,120.9069
San Manuel,16.0656,120.6667
Don Bosco,14.4817,121.0258
Louang Namtha,20.95,101.4
Prachuap Khiri Khan,11.8167,99.8
Tagkawayan,13.97,122.53
Titay,7.8703,122.5594
Minalabac,13.57,123.1844
Vigan,17.5747,120.3869
Cabagan,17.43,121.77
Impasugong,8.3028,125.0014
Magpet,7.12,125.12
Kitaotao,7.6406,125.0086
Louangphabang,19.89,102.1347
A Yun Pa,13.3939,108.4408
Sakon Nakhon,17.1564,104.1456
Ajuy,11.1725,123.0196
Pasacao,13.5103,123.0419
Sibonga,10.03,123.57
Guiuan,11.03,125.73
Estancia,11.45,123.15
Barobo,8.5292,126.1217
Molave,8.0933,123.485
Lucban,14.1133,121.5569
Zaragoza,15.4492,120.7933
Aurora,7.9484,123.5819
Phra Nakhon Si Ayutthaya,14.3478,100.5606
Buenavista,10.7,122.63
Maha Sarakham,16.1772,103.3008
Pigcawayan,7.28,124.43
Karak,-0.5298,101.5721
Hamtic,10.7,121.98
San Joaquin,10.6,122.08
Bani,16.1869,119.8592
President Roxas,7.1544,125.0558
Burauen,10.9833,124.9
Dauis,9.625,123.865
Claveria,8.61,124.8947
Ban Om Noi,13.7001,100.3241
Padangpanjang,-0.45,100.4167
Ibajay,11.8211,122.1617
Sison,16.17,120.52
Naguilian,16.53,120.4
Victoria,13.1719,121.2756
Bato,13.3578,123.3678
Tangkak,2.2667,102.55
Takeo,10.9833,104.7833
Leon,10.7808,122.3894
Muban Saeng Bua Thong,13.9424,100.3913
Padre Garcia,13.88,121.22
Caramoan,13.7707,123.8631
Santa Ignacia,15.62,120.43
Alaminos,14.0635,121.2451
Menggala,-4.475,105.2414
Bantacan,7.5483,126.1381
Samut Prakan,13.5897,100.6386
Ocampo,13.5594,123.3761
San Narciso,13.5677,122.5667
Kalamansig,6.57,124.05
Mabini,13.72,120.9
Cataingan,12.0028,123.9944
Gloria,12.9722,121.4778
El Nido,11.1956,119.4075
Bangued,17.6,120.62
Aringay,16.3982,120.3555
Wao,7.6404,124.7257
Chbar Mon,11.45,104.5
Amulung,17.8387,121.7235
Peñablanca,17.6258,121.7853
Donsol,12.9083,123.5981
Gombong,-7.6,109.5167
Cardona,14.4861,121.2289
Bang Bua Thong,13.9099,100.4263
Tubod,8.05,123.8
Bandar Seri Begawan,4.8903,114.9422
Pananaw,5.98,121.25
Pontevedra,11.48,122.83
Bignay,14.7456,120.9961
Rosario,8.38,126.0
Kandangan,-2.7833,115.2667
Dumarao,11.2631,122.6878
Noveleta,14.43,120.88
Kiblawan,6.62,125.22
Bagumbayan,14.4744,121.0569
Odiongan,12.4,122.0
Carmen,9.82,124.2
Kefamenanu,-9.4467,124.4781
Malabang,7.5903,124.0703
Pio Duran,13.03,123.45
Vinzons,14.1739,122.9081
Sông Đốc,9.0333,104.8167
Dulag,10.9525,125.0317
Libona,8.3333,124.7433
Alcala,15.8468,120.5218
Kangar,6.4333,100.2
Panay,11.5553,122.7931
Dumingag,8.155,123.345
Tunglangan,-8.4167,115.3
Lal-lo,18.2,121.6622
Barotac Viejo,11.05,122.85
Inabanga,10.03,124.07
Siocon,7.7067,122.1361
Minalin,14.97,120.68
Tuba,16.3928,120.5603
Nong Khai,17.8681,102.7444
Mahayag,8.1297,123.4383
Berastagi,3.1833,98.5167
Duyên Hải,9.6331,106.4975
Santa Rita,14.9953,120.6153
Bacolor,14.9984,120.6526
Balimbing,5.0728,119.8847
New Washington,11.6483,122.4339
Tibigan,9.95,123.97
Chong Nonsi,13.6965,100.5427
Luwuk,-0.9396,122.79
Mamburao,13.2233,120.596
Amahai,-3.3331,128.919
Sogod,10.38,124.98
Bunawan,8.18,125.99
Rengam,1.8833,103.4
Poso,-1.4,120.75
Malinao,13.4,123.7
Sumisip,6.42,121.98
Albuera,10.9186,124.6923
Ayungon,9.8584,123.1468
Pilar,11.4878,122.9956
Hà Tiên,10.3833,104.4833
Banisilan,7.5,124.7
Kabasalan,7.7968,122.7627
Isabel,10.93,124.43
Norala,6.55,124.67
Muara Teweh,-0.9535,114.8981
Montevista,7.7053,125.9903
Tuy,14.02,120.73
Lower Tungawan,7.6047,122.4228
Cordon,16.67,121.45
Pagalungan,7.0592,124.6987
Ban Plai Bua Phatthana,13.9032,100.3989
Pilar,14.67,120.57
Talisay,14.1,121.02
Narvacan,17.4192,120.4756
Lawas,4.8333,115.4
Ban Bang Mae Nang,13.8815,100.3759
Dingle,11.05,122.67
Lupao,15.8794,120.8994
Lumba-a-Bayabao,7.88,124.38
Phan Rí Cửa,11.1739,108.5661
Tantangan,6.62,124.75
Maluso,6.55,121.88
Jones,16.5583,121.7
Talagutong,6.27,125.67
Palayan City,15.5422,121.0844
Tayug,16.0267,120.7478
Basud,14.07,122.97
Aguilar,15.8899,120.2379
Bắc Kạn,22.1333,105.8333
Pakxan,18.3964,103.6558
Angadanan,16.7571,121.7479
Maria Aurora,15.7967,121.4737
Buguias,16.8033,120.8211
Parigi,-7.6914,108.5372
Nasipit,8.99,125.34
Barru,-4.3587,119.6399
Manjuyod,9.68,123.15
Pemangkat,1.1768,108.9624
Katipunan,8.5134,123.2847
Concepcion,11.2,123.1
Dolores,12.0378,125.4828
Upper Bicutan,14.4873,121.0503
Culasi,11.4272,122.056
Banaybanay,6.9664,126.0114
San Pascual,13.1286,122.9775
Bacnotan,16.7197,120.3481
Bulalacao,12.325,121.343
San Jacinto,16.0725,120.4411
Kaimana,-3.6444,133.6953
Pagsanjan,14.27,121.45
General Mamerto Natividad,15.603,121.051
Labangan,7.8667,123.5167
Pattani,6.8664,101.2508
Loon,9.8,123.8
Cateel,7.79,126.4531
Maitum,6.03,124.48
Central Signal Village,14.5106,121.0576
Mandaon,12.2259,123.2842
Guinayangan,13.9,122.45
San Jose,13.6981,123.5186
Labason,8.0647,122.52
Loreto,8.19,125.85
Hinatuan,8.3661,126.3361
Baler,15.7583,121.5625
Jaro,11.1894,124.7853
Lubuk Sikaping,0.15,100.1667
Badian,9.8694,123.3959
Kalilangan,7.7464,124.7475
Cameron Highlands,4.5,101.5
Santa Elena,14.1797,122.3919
Roseller Lim,7.6583,122.4639
Guambog,7.3092,125.8556
Cimerak,-7.7422,108.4244
Moises Padilla,10.27,123.08
Toboso,10.72,123.52
Victoria,14.225,121.325
Laurel,14.05,120.9
South Upi,6.8548,124.1443
Rantepao,-2.969,119.9
Abucay,14.7222,120.5354
Lai Châu,22.3992,103.4392
Villaba,11.22,124.4
Santo Tomas,15.0,120.75
Ban Pet,16.4379,102.7645
Nueva Valencia,10.5259,122.5398
Proper Bansud,12.8594,121.4567
Panitan,11.4639,122.7694
Balabac,7.98,117.05
Tucuran,7.8547,123.5783
Singhanakhon,7.2389,100.5506
Carranglan,15.9608,121.0631
Santa Cruz,13.0831,120.7192
Si Sa Ket,15.1069,104.3294
Bang Kruai,13.8042,100.4755
Santa Rita,11.4522,124.9408
Kotabumi,-4.8333,104.9
Llanera,15.6625,121.0197
Polanco,8.5319,123.3631
President Quirino,6.7,124.73
Liloy,8.1228,122.6736
Aritao,16.2973,121.0338
Claveria,12.9035,123.2457
Madridejos,11.27,123.73
Matnog,12.5856,124.0856
Puerto Galera,13.5,120.9542
Hố Nai,10.9725,106.8789
Amadeo,14.1728,120.9277
Kibawe,7.5678,124.9903
Ban Wat Lak Hok,13.5633,100.0564
Larantuka,-8.3133,123.0042
Quezon,15.5542,120.8111
San Miguel,8.9322,126.0403
Kasibu,16.3181,121.2958
Naga,7.7978,122.6944
Kampong Chhnang,12.25,104.6667
Gonzaga,18.2614,121.9969
Daram,11.6341,124.7947
Su-ngai Kolok,6.0333,101.9667
Socorro,13.0583,121.4117
Amuntai,-2.4177,115.2494
Anda,16.2896,119.9491
Tagudin,16.9361,120.4464
Ruteng,-8.6127,120.463
Tabogon,10.93,124.03
Svay Rieng,11.0833,105.8
Mondragon,12.52,124.75
Santa Cruz,17.0853,120.4553
Narathiwat,6.4167,101.8167
Alcala,17.9031,121.6556
Maayon,11.3903,122.7828
Lasam,18.07,121.6
Bacong,9.2464,123.2948
San Jose de Urquico,15.4781,120.4639
Mambajao,9.25,124.72
La Libertad,10.03,123.22
Tagbina,8.4578,126.1578
Tampakan,6.45,124.93
Marikina Heights,14.6534,121.1187
Maddela,16.3411,121.6833
Betun,-9.4953,124.9603
Malilipot,13.32,123.73
Santo Tomas,16.28,120.38
Soe,-9.8667,124.2833
Mobo,12.3372,123.6581
Vallehermoso,10.33,123.32
Lobo,13.65,121.25
Mambusao,11.43,122.5953
Maragondon,14.27,120.73
Nabas,11.8278,122.0939
Siay,7.7056,122.8641
Romblon,12.55,122.28
San Juan,16.67,120.33
Rizal,12.47,120.97
Villanueva,8.58,124.78
Leyte,11.37,124.48
Balaoan,16.82,120.4
Kualaserba,4.2333,97.8667
Bañga,11.6389,122.3331
Payabon,9.77,123.13
Ampana,-0.8667,121.5833
Leramatang,-8.4,123.57
Jambe,-6.316,106.4853
Malalag,6.6,125.4
Balud,12.0369,123.1935
Taysan,13.78,121.2
Dingras,18.1036,120.6975
Bukit Gambir,2.2167,102.6667
Valladolid,10.47,122.83
Cabatuan,16.9589,121.6692
Plaridel,8.6214,123.7101
Panglao,9.579,123.745
Tago,9.0192,126.2333
Baco,13.3584,121.0977
Pamplona,9.47,123.12
Santo Niño,6.43,124.68
Palauig,15.4336,119.9083
San Nicolas,16.07,120.7653
Magsaysay,12.3117,121.1472
Surin,14.8864,103.4932
Alimodian,10.8196,122.4322
Veruela,8.07,125.96
Caraga,7.3283,126.5658
Buldon,7.52,124.37
Talacogon,8.45,125.79
Poblacion,7.5086,125.9206
Manay,7.2108,126.5328
Chachoengsao,13.6903,101.0703
Jordan,10.6,122.6
Kalingalan Caluang,5.88,121.27
Lilio,14.13,121.436
Siniloan,14.42,121.45
Alicia,7.506,122.9412
Sogod,10.75,124.0
Clarin,8.2,123.85
Pamplona,13.5925,123.0833
Damulog,7.4853,124.9411
Kampot,10.6,104.1667
Masamba,-2.5531,120.3275
Bayanan,14.4078,121.05
Manggar,-2.89,108.27
Cakung,-6.2138,106.9473
Agoncillo,13.9334,120.9285
Sual,16.0661,120.0958
San Dionisio,11.2711,123.0948
Gabaldon,15.4506,121.3378
Caluya,11.932,121.548
San Nicolas,18.175,120.595
Cabugao,17.7947,120.4556
Ban Bang Khu Lat,13.9134,100.369
Aborlan,9.4386,118.5481
Valencia,9.28,123.25
Real,14.67,121.6
Jamindan,11.4094,122.5103
Margosatubig,7.5783,123.1659
San Fernando,13.5661,123.1422
Kampung Baharu Nilai,2.8167,101.8
Ban Na Pa,13.3956,101.0232
San Andres,13.5961,124.0992
Maasin,10.88,122.43
Olutanga,7.3106,122.8464
Buug,7.7286,123.0608
Patnongon,10.9142,121.9947
Samal,14.7678,120.5431
Laur,15.5797,121.1864
Borbon,10.83,124.0
Tayasan,9.92,123.15
Sabang,5.8942,95.3192
Mapandan,16.026,120.454
Mantingan,-7.3682,111.1644
Bangar,16.9,120.42
Bagabag,16.6044,121.2521
Luuk,5.9676,121.3133
Namlea,-3.25,127.0833
Bangkinang,0.35,101.0333
Santo Domingo,13.235,123.7769
Marantao,7.95,124.233
Karuhatan,14.6883,120.9761
San Marcelino,14.9742,120.1573
Basista,15.8524,120.3976
Phônsavan,19.46,103.18
Tambulig,8.07,123.5372
San Andres,13.3231,122.6761
Oras,12.1414,125.4392
San Antonio,14.9486,120.0864
Magallanes,12.8283,123.8344
Mabuhay,7.4176,122.837
Bayur,-0.261,100.222
Sitangkai,4.6615,119.3919
Luna,16.85,120.38
Mankayan,16.8567,120.7933
Bantay,17.5839,120.3908
Imbatug,8.3128,124.6873
Languyan,5.2667,120.0833
Long Lama,3.7644,114.4039
Ban Doi Suthep,18.7944,98.9142
Moalboal,9.95,123.4
Chaiyaphum,15.8056,102.0311
Basilisa,10.0654,125.5968
San Enrique,11.0697,122.6567
Manucan,8.5161,123.0917
Sagnay,13.6039,123.5233
Magsaysay,9.02,125.18
Enrile,17.5622,121.7011
Pande,-8.684,115.2264
Aurora,16.9918,121.6357
Las Navas,12.34,125.032
Simbahan,6.3,120.58
Ratchaburi,13.5356,99.8133
Dinas,7.6161,123.3378
Cabanglasan,8.0772,125.2992
Prey Veng,11.4833,105.3167
Siayan,8.2517,123.1144
Cuenca,13.92,121.05
Capalonga,14.3314,122.4928
Canaman,13.6481,123.1711
Gasan,13.32,121.85
Dagami,11.0611,124.9031
San Luis,13.83,120.93
Ban Mueang Na Tai,19.5932,98.9618
Rapu-Rapu,13.18,124.13
Barira,7.4706,124.3561
Gutalac,7.98,122.4
Sibuco,7.2928,122.0669
Matanog,7.47,124.25
Claveria,9.5742,125.7328
Saparua,-3.5749,128.647
Bel-Air,14.5639,121.0263
Krong Kep,10.4875,104.3208
Pandan,11.7206,122.0961
San Antonio,13.9,121.3
Jagna,9.65,124.37
Tambolaka,-9.4333,119.2333
Tam Hiệp,10.9497,106.8575
Pak Chong,14.6796,101.3976
Numancia,11.7042,122.3289
Santa Ana,18.4589,122.1419
Medina,8.92,125.02
Casiguran,12.8731,124.0081
Cha-am,12.7992,99.9683
Pambujan,12.57,124.93
Sungaiselam,-2.3839,105.98
Pola,13.1439,121.44
Bautista,15.8103,120.4756
Morong,14.68,120.2683
Tahuna,3.6119,125.5008
Juban,12.8478,123.9894
Pansol,14.6514,121.08
Gandara,12.013,124.8118
Allacapan,18.227,121.5556
Roi Et,16.0531,103.6511
San Luis,8.5,125.74
Praya,-8.7223,116.2923
Abra de Ilog,13.4448,120.726
Sulop,6.5986,125.3436
Lingig,8.0381,126.4127
Trinidad,10.0795,124.3432
Balasan,11.4728,123.0878
Suong,11.9167,105.65
Phatthalung,7.5,100.0
Guimbal,10.67,122.32
Munai,7.9758,124.0636
Payao,7.5857,122.8022
Mendez-Nuñez,14.1286,120.9058
Leganes,10.78,122.58
Simpang Renggam,1.8333,103.3167
Bugasong,11.0447,122.0647
Dueñas,11.07,122.62
Abulug,18.4441,121.4576
Bonifacio,8.0527,123.6136
Bayog,7.8474,123.0423
Mogpog,13.48,121.87
Santa Maria,14.475,121.425
Barugo,11.32,124.73
Ballesteros,18.4108,121.5169
Santa Fe,11.15,123.8
Aloguinsan,10.2229,123.5491
Kalasin,16.4342,103.5092
Merauke,-8.4932,140.4018
Phra Phutthabat,14.7212,100.8047
Tandubas,5.134,120.3461
Pinukpuk,17.5731,121.3653
New Panamao,5.97,121.2
Simunul,4.898,119.8213
Sibutu,4.85,119.47
General Nakar,14.7631,121.635
Santa Maria,15.9808,120.7003
Pangururan,2.6075,98.6959
Talayan,6.9844,124.3564
Tobelo,1.7319,128.0078
Laoac East,16.0333,120.55
Guindulman,9.762,124.488
San Manuel,17.02,121.63
Cantilan,9.3356,125.9769
San Remigio,10.8331,122.0875
Palapag,12.547,125.116
Jalajala,14.354,121.324
Shariff Aguak,6.8647,124.4417
San Quintin,15.9844,120.815
Milaor,13.5956,123.1781
Sibagat,8.82,125.69
Uttaradit,17.6231,100.0958
Initao,8.5,124.3167
Lupi Viejo,13.7908,122.9092
Lianga,8.633,126.0932
Tabango,11.3067,124.3714
Baclaran,14.5319,120.9942
Dao,11.38,122.63
Waikabubak,-9.6358,119.4131
Tobias Fornier,10.5178,121.945
Naguilian,17.02,121.85
Catmon,10.67,123.95
Kadingilan,7.6003,124.9097
Capoocan,11.2944,124.6419
Midsalip,8.0328,123.3147
Datu Paglas,6.7669,124.85
Batobato,6.8361,126.0889
Koh Kong,11.6167,102.9833
Masiu,7.82,124.32
Sapa Sapa,5.0899,120.2729
Cabarroguis,16.5103,121.5222
Columbio,6.7,124.93
Chumphon,10.4939,99.18
San Vicente,10.5281,119.2542
Bacarra,18.2519,120.6107
Batan,11.5853,122.4981
Getafe,10.15,124.15
Mỹ Hòa,10.3655,105.4011
Ban Pak Phun,8.5391,99.9702
Banate,11.05,122.78
Vintar,18.2306,120.6489
Dupax Del Norte,16.3075,121.1019
Kampong Speu,11.452,104.519
Pandami,5.53,120.75
Dipaculao,15.98,121.63
Mukdahan,16.5431,104.7228
Calape,9.88,123.88
Ban Ang Sila,13.3364,100.9278
Dumalinao,7.82,123.37
Sanana,-2.0545,125.9754
Mayantoc,15.6203,120.3775
Matalom,10.28,124.8
Diplahan,7.6911,122.9853
Balindong,7.92,124.2
Badoc,17.9267,120.4754
Dolores,14.0157,121.4011
Lumbang,14.297,121.459
Peñaranda,15.3531,121.0017
Jimalalud,9.9797,123.1999
Mallig,17.2086,121.6106
Igbaras,10.72,122.27
Catubig,12.4,125.05
Alubijid,8.5714,124.4751
Buguey,18.2882,121.8331
Salug,8.1075,122.7575
Balimbing,7.9,123.85
Caramoran,13.98,124.13
Tamparan,7.879,124.333
Malangas,7.6317,123.0322
Bauko,16.9917,120.8644
Sergio Osmeña Sr,8.3003,123.5083
Polillo,14.72,121.95
Claveria,18.6061,121.0822
Kampong Thom,12.7,104.9
Bửu Long,10.96,106.7967
Pantabangan,15.8086,121.1433
Tubao,16.35,120.42
Sigma,11.4214,122.6662
Calubian,11.4467,124.4278
Chum Phae,16.5431,102.1104
Merida,10.9098,124.5376
Mae Sot,16.7131,98.5747
Airmadidi,1.4333,124.9833
Lemery,11.23,122.93
Bagac,14.5951,120.3918
Dasol,15.9896,119.8805
Dimataling,7.5297,123.3661
Magsingal,17.685,120.4244
Ivisan,11.5217,122.6908
President Roxas,11.4297,122.9247
Paracelis,17.1811,121.4036
Siraway,7.5853,122.1406
Buenavista,13.7394,122.4675
Gata,7.85,124.35
Tairan Camp,6.65,121.87
La Paz,8.28,125.81
Ganassi,7.8269,124.1034
San Narciso,15.02,120.08
Ban Sai Ma Tai,13.8444,100.4829
San Isidro,11.42,124.35
Aglipay,16.4889,121.5874
Balatan,13.32,123.23
Gamu,17.05,121.83
Mataas Na Kahoy,13.97,121.08
Anilao,10.9785,122.7531
Thung Song,8.1669,99.6745
Krabi,8.0592,98.9189
Torrijos,13.32,122.08
Maguing,7.9,124.4
Banlung,13.7468,107.0045
Samrong,13.6421,100.6039
Bai Chay,20.9658,107.0347
Candelaria,15.63,119.93
Pantao-Ragat,8.05,124.15
Las Nieves,8.74,125.6
Calintaan,12.5756,120.9428
Piagapo,8.0,124.2
Candijay,9.818,124.496
Marogong,7.67,124.15
Pulupandan,10.52,122.8
San Miguel,10.78,122.47
Dumalag,11.3039,122.6214
Balete,11.5553,122.3792
Iguig,17.7517,121.7364
Dauin,9.2,123.27
Kulat,-8.8243,115.0983
Santa Maria,17.3719,120.4814
Balungao,15.9,120.7
Kuah,6.3167,99.85
Salay,8.87,124.8
Agno,16.1161,119.8027
Ragan Sur,17.32,121.78
San Roque,12.533,124.867
Padada,6.63,125.35
Balabagan,7.53,124.12
Quiapo,14.6,120.983
San Luis,15.72,121.52
Thuận Tiến,10.0894,105.8281
Bontoc,10.35,124.97
Ranai,3.9333,108.3833
Benito Soliven,16.98,121.95
Phú Mỹ,10.5906,107.0481
Makato,11.712,122.2922
Buenavista,10.08,124.12
San Jacinto,12.5683,123.7336
Pasuquin,18.3342,120.6183
Stung Treng,13.5167,105.9667
West Rembo,14.5667,121.0667
Placer,9.657,125.6016
South Ubian,5.18,120.48
Zamboanguita,9.1,123.199
Sumilao,8.3281,124.9783
Kumalarang,7.7478,123.1442
Manticao,8.4042,124.2867
Garchitorena,13.88,123.7
Lavezares,12.53,124.33
Bagong Pag-Asa,14.6622,121.0331
Licab,15.54,120.7619
Oslob,9.55,123.4
Poona-Piagapo,8.08,124.08
Kamphaeng Phet,16.4811,99.5222
Hinunangan,10.4,125.2
Sexmoan,14.936,120.623
Lugus,5.7,120.82
Santo Domingo,17.6414,120.4108
Kudat,6.8833,116.8333
Dapa,9.7578,126.0528
Ampatuan,6.8348,124.4581
Santo Niño,14.5033,121.0031
Siquijor,9.18,123.58
Ban Phai,16.073,102.7362
Jimenez,8.3333,123.8333
Tabuelan,10.85,123.9
Ponot,8.4428,123.0219
Baleno,12.4739,123.4982
Babatngon,11.4207,124.8434
Tibiao,11.2892,122.0342
Mabini,9.865,124.523
Pilar,9.83,124.33
Bang Phongphang,13.6791,100.5291
Santiago,9.27,125.56
Doña Remedios Trinidad,15.0,121.08
Tudela,8.2472,123.8424
Santo Niño,17.8861,121.5691
Basay,9.42,122.63
Samut Songkhram,13.4097,100.0017
Tha Yang,12.9658,99.8924
Saint Bernard,10.28,125.13
Valencia,9.6097,124.208
San Manuel,15.7975,120.6072
Datu Piang,7.0178,124.4974
Ban Bang Khu Wat,13.9576,100.4903
Libacao,11.48,122.3
Kolambugan,8.1144,123.8971
Warin Chamrap,15.2008,104.8612
Pinyahan,14.64,121.0461
Cabangan,15.13,120.15
Bayang,7.793,124.192
Mainit,9.5369,125.5231
Cuartero,11.3428,122.6714
Lubok Antu,1.05,111.8333
Aloran,8.4146,123.8228
Reina Mercedes Viejo,16.9872,121.8272
Reina Mercedes,16.9872,121.8272
Majayjay,14.1463,121.4729
Caridad,14.4828,120.8958
Dingalan,15.38,121.4
Talusan,7.4263,122.8084
San Isidro,12.388,124.331
Mahaplag,10.6072,124.9636
Magdalena,14.2,121.43
Lapuyan,7.6325,123.1914
Ban Chang,12.7208,101.0669
Di Linh,11.5778,108.0751
Leon Postigo,8.1514,122.9244
Conner,17.8086,121.2889
Pitogo,7.4536,123.3133
Villareal,11.57,124.93
Palanas,12.1464,123.9219
Macalelon,13.75,122.13
Zarraga,10.82,122.6
Ramon Magsaysay,8.0053,123.4869
Talisay,14.1356,122.9244
Taraka,7.8994,124.3481
Buri Ram,14.9942,103.1022
Rappang,-3.8447,119.8205
Long Thành,10.8667,106.9167
Badiangan,10.986,122.5369
San Isidro,16.87,121.77
Quezon,17.3119,121.605
Tarragona,7.0491,126.4471
Tambo,14.5164,120.9889
Alitagtag,13.865,121.0063
Santa Margarita,12.0378,124.6578
Labrador,16.0339,120.1392
Ban Phonla Krang,14.9192,102.1095
Magarao,13.6619,123.1903
Malitbog,8.5361,124.8808
Saguiaran,8.03,124.27
Sapian,11.4939,122.6047
San Juan,17.7431,120.4583
Bien Unido,10.13,124.38
Bugho,10.8,124.93
San Pablo,7.6578,123.4597
Betong,5.7731,101.0725
Pantar,8.0667,124.2667
Macrohon,10.0797,124.9431
Lauaan,11.1429,122.0417
Casiguran,16.28,122.12
Plainview,14.5777,121.0337
Bubong,8.02,124.48
Madalum,7.853,124.119
Kayapa,16.3583,120.8861
Mabini,16.0697,119.94
Nakhon Phanom,17.4069,104.7808
Santa Josefa,7.98,126.03
Del Gallego,13.9233,122.5961
San Jose,10.0083,125.5889
Lagindingan,8.58,124.45
Pandag,6.7411,124.7827
Parit Buntar,5.1167,100.5
San Pablo,17.4478,121.795
Infanta,15.8208,119.9083
Lamut,16.6517,121.2178
Poro,10.629,124.407
Sanchez-Mira,18.5611,121.2344
Suphan Buri,14.4675,100.1169
Manito,13.1235,123.8693
Sierra Bullones,9.82,124.28
Kathu,7.9112,98.3475
Dancagan,7.6119,125.0028
Buenavista,13.25,121.95
Burgos,17.07,121.7
Sinait,17.8667,120.4583
Santa Lucia,17.1222,120.4494
Binidayan,7.8,124.17
Bobon,12.52,124.57
Socorro,9.6181,125.9661
Ban Pa Sak,16.8477,100.2563
Amnat Charoen,15.85,104.6333
Tubay,9.16,125.52
Santo Cristo,14.6603,121.03
Pura,15.6248,120.648
Natividad,16.0422,120.7953
Talisayan,8.9917,124.8833
Santa Maria,17.47,121.75
Tabina,7.4655,123.4086
Ban Piang Luang,19.6493,98.6352
Tarangnan,11.9,124.75
Kanchanaburi,14.0194,99.5311
Altavas,11.5383,122.4869
Alegria,9.7243,123.3402
Busuanga,12.1335,119.9363
Tipo-Tipo,6.53,122.17
Ayuquitan,9.4644,123.2237
Lopez Jaena,8.55,123.7667
Bungku,-2.5333,121.9667
Unisan,13.8413,121.9752
Tumbao,7.12,124.38
Nagtipunan,16.22,121.6
San Miguel,10.0,124.32
Talugtug,15.7789,120.8111
Camalaniugan,18.2756,121.6756
Allen,12.5013,124.282
Sarrat,18.1578,120.6447
Monreal,12.644,123.6648
Pagudpud,18.5614,120.7878
Soccorro,14.6179,121.0558
Camaligan,13.6208,123.1656
San Felipe,15.0619,120.07
Pangil,14.4,121.47
Quirino,17.1356,121.735
Paoay,18.0625,120.5203
Vangviang,18.9267,102.4494
Bidur,4.1167,101.2833
Tegalbuleud,-7.3578,106.622
Paete,14.37,121.48
Dimasalang,12.1933,123.8583
Jabonga,9.3431,125.5156
Solsona,18.0961,120.7725
Piat,17.7919,121.4769
General Luna,13.6881,122.1708
Poblacion,10.1614,125.1303
Pamplona,18.4661,121.3425
Tugaya,7.884,124.172
Kalayaan,14.328,121.48
Ban Khamen,13.8823,100.2879
Tuburan,6.6,122.2
Bintuni,-2.1167,133.5333
Patian,5.8444,121.1439
Baroy,8.03,123.78
Tamilisan,7.9761,122.6639
Ternate,14.28,120.72
Burdeos,14.8436,121.9697
Ban Bang Phun,13.9968,100.5891
Carrascal,9.3683,125.9494
Takhli,15.2667,100.35
Santo Tomas,17.4,121.77
Malinao,11.6431,122.3072
Ấp Khánh Hòa,10.6333,105.2167
Garcia Hernandez,9.6144,124.2946
Ramain,7.97,124.35
Tbeng Meanchey,13.8167,104.9667
Alicia,9.8957,124.4415
Bacolod,8.1892,124.0238
Preah Vihear,13.8167,104.9667
Sagbayan,9.92,124.1
Lucena,10.88,122.6
Kiên Lương,10.2856,104.6444
Kauswagan,8.1917,124.0847
Lagonglong,8.8,124.78
San Enrique,10.42,122.85
San Fernando,12.32,122.6
Caibiran,11.57,124.58
Lop Buri,14.8,100.6269
San Agustin,12.5689,122.1314
Bontoc,17.09,120.9772
Balete,14.02,121.1
Quezon,16.4894,121.2639
Mina,10.93,122.58
Cavinti,14.245,121.507
General Emilio Aguinaldo,14.18,120.8
Bulusan,12.7522,124.1356
San Nicolas,13.9283,120.951
Buôn Trấp,12.4833,108.0167
Magallanes,14.18,120.75
Chanthaburi,12.6086,102.1039
Kalawit,7.9051,122.5279
Catigbian,9.83,124.03
Baliguian,7.8088,122.1452
Candoni,9.82,122.6
Burgos,16.0465,119.8568
Limbuhan,11.8836,124.0497
Tangalan,11.7775,122.2603
Bang Sao Thong,13.5812,100.7957
Pitogo,10.121,124.553
Satun,6.6147,100.0681
Dumaran,10.53,119.77
Ban Phru,6.948,100.4794
Muang Sing,21.2,101.15
Pakil,14.38,121.48
Cuyo,10.85,121.02
Padre Burgos,13.9226,121.8116
Maharlika Village,14.4989,121.0533
Tapaktuan,3.25,97.1667
Sattahip,12.6636,100.9036
Bình Hòa,10.9353,106.8614
Ban Thoet Thai,20.3084,99.6445
Gamay,12.38,125.3
Barbasa,11.1961,122.0389
Quảng Trị,16.7469,107.194
Maigo,8.15,123.97
Sai Mai,13.8882,100.462
Calbiga,11.63,125.02
Phôngsali,21.6833,102.1
Tugatog,14.6629,120.969
Cajidiocan,12.37,122.68
Maibog,10.15,125.0
Phetchaburi,13.1119,99.9458
Calamba,8.5583,123.6417
Culion,11.8944,120.0186
Carmen,9.0,125.26
Ban Bang Rin,9.9531,98.6342
Caba,16.4316,120.3446
Tembagapura,-4.1428,137.0906
Tubungan,10.78,122.3
Ban Bang Krang,13.8422,100.4539
Wichian Buri,15.6565,101.1072
Ramos,15.6667,120.6417
Viga,13.87,124.3
Oteiza,8.7437,126.2214
General Luna,9.7836,126.1567
Blangmangat,5.1881,97.1403
Pitogo,13.785,122.0881
Lumbatan,7.785,124.256
Butig,7.7239,124.3011
Prieto Diaz,13.0408,124.1931
Parabcan,13.71,123.745
Sarangani,5.412,125.422
Lazi,9.128,123.634
Piddig,18.1647,120.7172
Baclayon,9.6227,123.9135
Naawan,8.4333,124.3
Loei,17.4853,101.7303
Phichit,16.4431,100.3467
Magallanes,9.02,125.52
Ugong,14.5842,121.0729
Maribojoc,9.75,123.85
Batad,11.42,123.12
Ban Pa Tueng,20.1339,99.8325
Salcedo,11.15,125.67
Phetchabun,16.4169,101.1533
Santa Fe,11.1856,124.9161
San Agustin,16.52,121.75
Madamba,7.88,124.07
Anini-y,10.4325,121.9253
San Jose,9.42,123.23
Ấp Phú Mỹ,9.75,106.0
Krathum Baen,13.6631,100.2572
Membakut,5.4667,115.7833
Gigaquit,9.5947,125.6975
Looc,12.2605,121.9926
Puruk Cahu,-0.6384,114.5677
Bato,13.6,124.3
Cagwait,8.9181,126.3017
Guipos,7.735,123.3231
Can-Avid,12.0,125.45
Tigbao,7.8205,123.2277
San Fernando,12.4858,123.7628
MacArthur,10.8356,124.9964
Rancheria Payau,7.8509,123.1542
Santa Teresita,13.8664,120.9814
Cabucgayan,11.4719,124.575
Nong Bua Lamphu,17.2042,102.4444
Nang Rong,14.6283,102.7933
Pandan,14.05,124.17
Llorente,11.4125,125.5458
Inopacan,10.5,124.75
Wang Nam Yen,13.5004,102.1806
Luna,18.3311,121.3725
Krus na Ligas,14.6442,121.0636
Kitcharao,9.46,125.58
Mabitac,14.43,121.42
Linamon,8.18,124.17
Dupax del Sur,16.2842,121.0917
Clarin,9.97,124.02
Loyola Heights,14.6403,121.0744
Aguinaldo,16.9789,121.3272
Sadao,6.6386,100.424
Seria,4.6141,114.3302
Ronda,10.0003,123.4095
Barcelona,12.8694,124.1419
Thuân An,16.5489,107.6436
Punturin,14.7381,120.9978
Chợ Phước Hải,10.4283,107.2953
San Guillermo,16.7244,121.81
Luisiana,14.185,121.5109
Hindang,10.4339,124.7278
Banting,5.7167,120.9
Tolosa,11.0633,125.0353
Mae Sai,20.4333,99.8833
Luna,16.97,121.73
Banaue,16.9119,121.0614
Na Klang,17.3043,102.1964
Tân Phong,19.7322,105.7817
Nan,18.7833,100.7833
Kapay,8.08,124.4
Lugait,8.3411,124.2592
Guadalupe Nuevo,14.5587,121.0446
Binondo,14.6,120.967
Sapang Dalaga,8.55,123.57
Magsaysay,8.03,123.92
Kawayan,11.7,124.37
Mường Lay,22.0678,103.1506
Pak Phanang,8.3538,100.2023
Yasothon,15.7972,104.1431
Kuala Pembuang,-3.3871,112.5434
Samboan,9.5288,123.3064
San Martin De Porres,14.4817,121.0425
Danao,10.02,124.27
Piñan,8.4822,123.45
Ban Tha Pha,13.8437,99.8681
Ban Klang,16.976,100.56
Del Carmen,9.869,125.97
Villa Verde,16.6067,121.1828
Ban Wat Sala Daeng,13.8097,100.3589
Kuala Lipis,4.184,102.042
Valderrama,11.0036,122.1294
Kampong Thum,12.712,104.889
Ban Tha Kham,9.1058,99.2325
Mulundo,7.93,124.38
Ban Tha Ton,20.0608,99.3622
Dagohoy,9.92,124.28
San Miguel,7.65,123.2678
Ban Na San,8.7997,99.3635
Malabuyoc,9.65,123.33
San Miguel,11.2942,124.83
Sinacaban,8.2854,123.8436
Caoayan,17.5469,120.3831
Santa Teresita,18.2519,121.91
Rizal,17.5,121.6
Teminabuan,-1.4333,132.0167
Santiago,17.2947,120.4453
Cervantes,16.9917,120.7333
Marihatag,8.8008,126.2983
Tublay,16.4764,120.6333
Ban Thap Kwang,14.6103,101.0753
Siruma,14.0219,123.2589
Kantharalak,14.6536,104.6278
Pastrana,11.13,124.88
Buruanga,11.8438,121.8888
Napindan,14.5398,121.0966
Ban Bueng,13.3142,101.1114
Ban Patong,7.8931,98.2983
Tadian,16.9961,120.8208
Pugo,16.28,120.48
San Roque,14.48,120.9011
Ban Fang Tuen,19.5497,99.7566
Espiritu,17.9806,120.6544
Kapangan,16.5764,120.6053
Balintawak,14.6506,121.0014
Cabusao,13.7275,123.1142
Diadi,16.66,121.3686
Atok,16.6272,120.7672
Tingloy,13.65,120.87
Jiabong,11.7625,124.9519
Lumphat,13.507,106.981
Attapu,14.8,106.8333
Ermita,14.583,120.983
Alcoy,9.7082,123.506
La Paz,10.8911,124.9572
Ban Mon Pin,19.9168,99.1583
San Teodoro,13.4358,121.0192
Lumbayanague,7.78,124.28
Rizal,17.8478,121.345
Ban Bueng Phra,16.746,100.275
Malanday,14.7194,120.9547
Svay Pak,11.6467,104.8715
Ban Na Yang,12.8339,99.9346
San Gabriel,16.67,120.4
Tak Bai,6.2592,102.0531
Fakfak,-2.9167,132.3
Madalag,11.5269,122.3064
Lagawe,16.7975,121.1228
Ấp Khánh Hưng,10.2,105.85
Duero,9.72,124.4
Malimono,9.6183,125.4019
Nunuñgan,7.82,123.97
Sebaste,11.5901,122.0945
Kalabahi,-8.2167,124.5167
Taft,11.9058,125.4181
Ban Bo Haeo,18.3048,99.4657
Paglat,6.7811,124.7849
Balilihan,9.75,123.97
San Miguel,14.6,121.0
Kasongan,-1.8959,113.3878
Paluan,13.42,120.47
Ban Mae Hia Nai,18.7433,98.964
Ban Mae Kha Tai,18.7352,98.9678
Santander,9.45,123.33
Bilar,9.7,124.1
Tinoc,16.675,120.9367
Baliangao,8.67,123.6
Tinajeros,14.6733,120.969
Cagdianao,9.92,125.67
Cortes,9.72,123.88
Rizal,14.1083,121.3917
Tha Bo,17.8494,102.5858
Santa Fe,16.1592,120.9378
Ban Mai,14.9629,102.0314
Sikhio,14.9,101.7167
Pinabacdao,11.62,124.98
Bình Minh,10.0961,105.7894
Mayorga,10.9,125.0
Santa Ana,14.5277,121.0766
Libjo,10.196,125.5328
Buadiposo-Buntong,7.97,124.38
Marcos,18.0444,120.6786
Kolonodale,-1.9833,121.3333
Bombon,13.6867,123.1994
Almeria,11.6206,124.3794
Bucay,17.54,120.72
Flora,18.2147,121.4186
Cortes,9.2753,126.1911
Gitagum,8.5956,124.4054
Sa Kaeo,13.8206,102.0589
San Kamphaeng,18.75,99.1167
Loay,9.6,124.02
Sing Buri,14.8911,100.4031
Marabut,11.12,125.22
Santa Fe,12.15,122.0
San Rafael,11.1728,122.8267
Jovellar,13.07,123.6
Anda,9.744,124.576
Prachin Buri,14.0567,101.3739
Klaeng,12.7778,101.6483
Ban Mae Ngon Khilek,19.8021,99.1614
Kiangan,16.7775,121.0878
Palanan,17.0589,122.43
Biliran,11.58,124.48
San Jose,12.531,124.487
Ban Mae Ka Hua Thung,19.0942,99.9136
Pinili,17.954,120.527
Sam Phran,13.727,100.2153
San Jorge,11.9833,124.8167
Catarman,9.13,124.68
Tak,16.8711,99.125
Ban Thum,16.4523,102.7225
Esperanza,11.7369,124.0417
Boljoon,9.63,123.43
Matagob,11.1469,124.4733
Libertad,11.769,121.9189
Phayao,19.1653,99.9036
Talitay,7.0353,124.3758
Sibutao,8.6131,123.4797
Lubang,13.8586,120.1228
Loboc,9.63,124.03
Calayan,19.2619,121.4753
Ban Song,8.6603,99.3768
Tagana-an,9.6964,125.5825
Ban Pong,13.8174,99.883
Rattaphum,7.1412,100.2905
Sudipen,16.9,120.47
Alcantara,12.2584,122.0543
Sawankhalok,17.3099,99.8263
Saguday,16.5394,121.5636
Ban Phe,12.6287,101.4399
Dilasag,16.4,122.22
Santa Magdalena,12.6489,124.1083
Kibungan,16.6939,120.6539
Tomas Oppus,10.25,124.98
Ban Rawai,7.7707,98.3185
Alcantara,9.9715,123.4047
Ginatilan,9.6,123.35
Tubaran,7.72,124.17
Ban Tha Mai I,18.7461,98.9819
Pran Buri,12.3939,99.9159
Famy,14.43,121.45
Buntok,-1.719,114.8448
Ban Wang Nok Aen,16.8333,100.4833
Phrae,18.1453,100.1419
Madrid,9.2619,125.9647
Ban Na Sai,17.7334,98.9513
Barangka,14.6297,121.0803
Ban Cho Ho,15.0311,102.1381
Thị Trấn Ngải Giao,10.6406,107.2478
La Paz,17.6739,120.6847
Ban Lam Narai,15.2,101.1333
Ban Nong Han,18.9,99.0
San Miguel,11.492,119.871
Panukulan,14.93,121.82
San Juan,9.159,123.494
Arteche,12.2694,125.3712
Ban Thung Tam Sao,6.9581,100.3207
Hương Canh,21.2833,105.65
Piru,-3.0811,128.1411
Zumarraga,11.639,124.841
Ransiki,-1.5,134.1667
Kabugao,18.0239,121.1833
Aranyaprathet,13.6928,102.5017
Nakhon Nayok,14.2069,101.2142
Alegria,9.4667,125.5767
Bingawan,11.23,122.57
Ban Kao,13.8667,99.15
Bang Phae,13.6983,99.9068
Ranong,9.9619,98.6389
Chai Prakan,19.7322,99.1403
Tankal,8.0,124.0
Mông Dương,21.0553,107.3431
Despujols,12.5183,122.0108
Alabat,14.1023,122.0136
Ban Dung,17.6986,103.2611
Quezon,14.05,122.13
Lam Luk Ka,13.9297,100.7375
Ban Samo Khae,16.8408,100.3415
Kabayan,16.6233,120.8381
Maliana,-8.9917,125.2197
Sulat,11.82,125.45
Si Satchanalai,17.4155,99.8152
San Miguel,13.6411,124.3008
Melonguane,4.0045,126.6827
Ban Tha Pho,16.8582,100.2291
Leso,11.6697,122.3269
Mayoyao,16.9736,121.2214
Sukhothai,17.0,99.8167
Calumpang,14.6249,121.0865
Julita,10.9731,124.9622
Ban Pang Mu,19.3336,97.9656
Mỹ Lương,20.8667,105.6667
Pudtol,18.2356,121.3733
Ambaguio,16.5316,121.0282
Ban Nong Kathao,16.9833,100.7833
Hiệp Hòa,10.9289,106.8378
Ban Duea,16.1253,101.8967
Cipanas,-6.733,107.041
Uthai Thani,15.38,100.025
Khao Yoi,13.2403,99.8254
Magdiwang,12.48,122.52
Ban Khek Noi,16.8118,100.9671
San Policarpo,12.1791,125.5072
Victoria,12.45,124.32
Thoen,17.61,99.2234
Anao-aon,9.7778,125.4231
Maydolong,11.5,125.5
Motiong,11.78,125.0
Project Six,14.6561,121.0408
Libagon,10.3,125.05
Ban Na Kham,14.0681,101.8125
Silvino Lobos,12.3281,124.8464
Ban Ton Thong Chai,18.3375,99.5334
Tagoloan,8.1333,124.2667
Tatarikan,7.73,124.12
Patnanungan,14.78,122.18
Rizal,8.5272,123.5517
Tubod,9.5547,125.5697
Ban Ho Mae Salong,20.1631,99.6225
Bangui,18.5378,120.7653
Ban Mae Sun Luang,19.8305,99.1706
Santa,17.486,120.4344
Antequera,9.7812,123.8975
Calanogas,7.75,124.1
Baucau,-8.4667,126.45
Lagangilang,17.61,120.73
San Juan,10.27,125.18
Dimiao,9.62,124.17
Bacuag,9.6081,125.6405
San Tomas,15.8792,120.5883
Tayum,17.62,120.66
San Julian,11.7536,125.4558
Matungao,8.13,124.17
Lope de Vega,12.2983,124.6238
Mahinog,9.15,124.78
Boston,7.8697,126.3761
Batuan,12.4222,123.7817
Ban San Phak Wan Luang,18.7049,98.9661
Ban Du,19.9691,99.8589
Bakun,16.7925,120.6614
Ban Kaeng,16.4119,102.0402
Pualas,7.82,124.07
Quinapundan,11.1578,125.5208
Santa Catalina,17.5917,120.3644
Nampicuan,15.7342,120.6356
Larena,9.249,123.591
Bokod,16.4914,120.83
Ban Ao Nang,8.0314,98.8225
Araceli,10.5529,119.9904
Perai,5.3779,100.3992
Bagulin,16.6079,120.4378
Painan,-1.3511,100.5756
General MacArthur,11.2486,125.54
Bo,20.6736,105.5311
Maria,9.196,123.655
Balangiga,11.1092,125.3867
Balangkas,14.7381,120.9978
Sison,9.6592,125.5272
Ban Don Kaeo,18.8567,98.9689
Ban Nong Kula,16.65,99.95
Pak Thong Chai,14.7167,102.0167
Ban Tha Thong,16.8582,100.2291
Det Udom,14.906,105.0784
Mapanas,12.475,125.254
Bua Yai,15.5858,102.4337
Santol,16.77,120.45
Thong Pha Phum,14.7382,98.632
Sai Buri,6.7012,101.6181
Belison,10.8381,121.9606
Kinogitan,8.9855,124.7937
Sungai Guntung,0.2956,103.6114
Tân Vạn,10.9119,106.8261
Ban Mueang Nga,18.5997,99.0181
Pathum Thani,14.05,100.4833
Bambang,14.5228,121.0689
Bang Racham,14.9,100.3167
Khe Sanh,16.6193,106.7305
Hòa Thượng,21.6472,105.8278
Taphan Hin,16.2108,100.4188
Batuan,9.8,124.13
Ban Bang Muang,13.8273,100.3859
Ban Tha Luang Lang,12.6376,102.0884
Hinabangan,11.7,125.07
Lanuza,9.2322,126.0592
Sampaloc,14.1625,121.6378
Serui,-1.878,136.237
Ban Bung Kha,16.1675,104.6408
Ban Mae Kaluang,19.0778,99.927
Baras,13.67,124.37
Dok Kham Tai,19.162,99.9926
Dakit,10.06,125.1606
Ban Don Thong,16.904,100.3563
Buli,14.443,121.051
Santa Marcela,18.2872,121.4375
Ban Na Chom Thian,12.8356,100.9264
Ang Thong,14.5925,100.4572
Ban Chomphu Nuea,16.6833,100.6667
Lawang Bato,14.73,120.9961
Ban Khlong,16.8353,100.232
San Clemente,15.7119,120.3603
Ban Chorakhe Samphan,14.3258,99.8623
Tinglayan,17.265,121.1489
Ban Nong Hoi,18.75,99.0167
Ba Chúc,10.5,104.9
San Vicente,17.5947,120.3753
Giporlos,11.1208,125.4494
Silago,10.5291,125.1618
Phra Samut Chedi,13.5976,100.5848
Lawaan,11.1408,125.3011
Culaba,11.6578,124.5425
An Thành B,10.1958,106.3314
Libertad,8.5583,124.35
Song Phi Nong,14.2306,100.0389
Balbalan,17.4436,121.2008
Chợ Mới,10.55,105.4
Kuala Kurun,-1.1016,113.8664
Agutaya,11.152,120.9396
Sagay,9.12,124.72
Ban Krang,16.746,100.275
Burgos,17.3331,120.4944
Perez,14.18,121.93
Agdangan,13.8758,121.9122
Ban Tat,17.2791,102.8022
Kaeng Khoi,14.5864,100.9967
Beaufort,5.3458,115.7446
Ban Sop Tia,18.3895,98.678
Chaiyo,14.6666,100.4702
Ấp Bình Thành,10.1833,105.2
Ấp Phú Hải,11.1667,108.5667
Magsaysay,10.87,121.05
Tagoloan,8.1092,124.4392
Lamphun,18.5864,99.0119
Ban Tom Klang,19.1961,99.8378
San Vicente,14.1061,122.8733
Chok Chai,14.7333,102.1667
Maba,0.7,128.3
Rong Kwang,18.3392,100.3172
Calanasan,18.255,121.0436
Pajo,-8.5167,120.3333
Ban Laem,13.2168,99.9767
Chai Nat,15.1872,100.1283
Kantang,7.4067,99.515
Santo Niño,11.9263,124.4492
Pilar,10.807,124.565
Bang Phlat,13.8247,100.4908
Pidigan,17.57,120.59
Ban Bang Non,9.9923,98.6507
Putussibau,0.8575,112.925
Hinundayan,10.35,125.25
Huai Yot,7.7894,99.6347
Nong Khae,14.3352,100.8727
Capul,12.423,124.182
Doi Lo,18.4667,98.7833
Ban Tap Tao,19.728,100.2939
Lila,9.6,124.1
Ban Huai So Nuea,20.0536,100.2828
Currimao,18.0203,120.4864
Anao,15.7304,120.6264
Josefina,8.2144,123.5439
Na Wa,17.4692,104.102
Ban Bo Luang,18.1476,98.3489
Ban Bang Sai,13.3847,100.9856
Ban Noen Phoem,17.1167,100.8667
Ban Muang Ngam,7.3536,100.4898
Ban Pae,18.2108,98.6164
Wang Saphung,17.2995,101.7624
Nueva Era,17.92,120.67
Mariana,14.6194,121.0347
Phước Long,9.4194,105.3842
Nong Bua,15.8647,100.5858
Don Sak,9.3169,99.6944
Fort Bonifacio,14.5311,121.0478
Tabontabon,11.03,124.97
Ban,-8.2333,115.4833
Lapinig,12.315,125.302
Chợ Lách,10.2647,106.13
Sonosari,-7.8014,110.3644
Kehen,-8.5589,115.2869
Agcogon,12.07,121.93
Kuchinarai,16.5318,104.044
Mương Theng,21.3869,103.0156
Ban Phan Don,17.129,102.9618
Mutia,8.4176,123.4771
Carmen,9.2289,126.0167
Lom Sak,16.7775,101.2468
Ban Mae Tuen,18.01,98.8809
Manabo,17.43,120.7
Phon,15.8084,102.6018
Sablan,16.4967,120.4875
Gainza,13.6167,123.1414
Ban Mae Kham Lang Wat,20.2225,99.8561
Ban Wiang Phan,20.4128,99.8853
Den Chai,17.9835,100.0519
Dolores,17.65,120.71
Sagada,17.0842,120.9008
Xuân Trùng,21.05,105.2833
Hàng Trạm,20.3944,105.6222
Ban Saeo,20.2158,100.225
Satuek,15.3008,103.3013
Sevilla,9.7,124.05
Calatrava,12.6167,122.0708
Ban Bang Lamung,13.047,100.9289
Tudela,10.636,124.47
Ban Kat,18.1764,97.9339
Biri,12.67,124.38
Lang Suan,9.95,99.0667
Alburquerque,9.6104,123.9549
Tentena,-1.7822,120.6494
Kaset Wisai,15.6556,103.5836
Salaya,13.8023,100.3208
Padre Burgos,10.03,125.02
Salcedo,17.1517,120.5361
Tha Chang,9.2674,99.1922
An Phú,10.85,105.0833
Bang Ban,14.4247,100.4758
Ban Wang Daeng,17.479,100.1247
Si Wilai,18.1865,103.7408
Bagamanoc,13.9408,124.2888
Thanh Xuân,10.2308,106.3253
Phanat Nikhom,13.4458,101.1844
Balingoan,9.0,124.85
Fao Rai,18.0175,103.3057
Rosario,12.52,124.42
Ban Yang Hom,19.9222,100.3056
Tibubeneng,-8.6469,115.1503
Mae Wang,18.6567,98.6816
Phrai Bueng,14.749,104.3574
Phibun Mangsahan,15.2482,105.2296
Khlung,12.4525,102.2267
Pua,19.1799,100.9089
Panaon,8.3667,123.8333
Tamiang Layang,-2.116,115.1691
Ban Bang Yai,13.8369,100.3591
Suyo,16.9839,120.5139
Burgos,18.5114,120.6444
Doi Saket,18.8667,99.1333
Wang Sombun,13.3515,102.1833
Tuktukan,14.528,121.0718
Sam Ko,14.6013,100.2602
San Juan,17.68,120.73
Dinagat,9.9561,125.5933
Pasil,17.3894,121.1597
Ban Ko,13.6486,100.0063
Kiến Giang,17.225,106.7917
Don Galo,14.5072,120.9844
San Ricardo,9.92,125.28
Ban Thung Khao Phuang,19.5342,98.9621
Ban Lueak,13.7065,99.8902
Phai Sali,15.6,100.6494
Trat,12.2417,102.5125
Phangnga,8.4644,98.5317
Prakhon Chai,14.6092,103.0818
Ban Ueam,18.4246,99.4434
Ban Non Sombun,18.2983,103.6528
Pilar,9.8639,126.1008
Phon Charoen,18.0258,103.7094
Kelandis,-8.6595,115.227
Natonin,17.1089,121.2797
Thạnh Phú,9.9539,106.5069
Ban Dan Na Kham,17.7167,100.1333
Ban Wisit,18.348,103.6308
Kut Chap,17.4262,102.5646
Galimuyod,17.18,120.47
Tha Muang,13.9611,99.6411
Pintuyan,9.95,125.25
Phra Pradaeng,13.6592,100.5331
Balangkayan,11.4728,125.5108
Kranuan,16.7081,103.0811
Ban Bong Tai,17.4057,103.2992
Ban Bang Toei,14.0656,100.5226
Pilar,17.42,120.6
Ban Klang,18.5791,99.0687
Ban Pa Hung,19.5672,99.7013
Plaridel,13.9511,122.0203
Corcuera,12.8,122.05
Nong Ki,14.6867,102.5325
Ban Bu Sung,14.9602,104.1657
Sung Noen,14.8965,101.8167
Padang Besar,6.6626,100.3217
Haria,-3.5833,128.6167
Tân Sơn,21.26,106.2681
Makale,-3.1,119.85
Ban Ngao,19.6736,100.2583
Kamalasai,16.3383,103.5756
Thị Trấn Mậu A,21.8781,104.6956
Hingyon,16.8522,121.0989
Karimunjawa,-5.8192,110.459
Ban Pong Yaeng Nai,18.8833,98.8167
San Isidro,9.8,124.3
Phak Hai,14.4626,100.3667
Ban Pha Bong,19.2266,97.9707
Ban Phan Chali,16.6333,100.4833
Tha Mai,12.6196,102.0112
Nong Wua So,17.2702,102.5985
Ban Mae Sam Laep,17.975,97.7392
Mae O,19.65,99.8333
Chom Thong,18.4901,98.6747
Bueng Khong Long,17.9667,104.045
Sugbongkogon,8.95,124.78
Ban Mae Chedi,19.1833,99.5167
Non Sung,15.1788,102.2514
Chiang Klang,19.293,100.8739
Panganiban,13.9,124.3
Mae Ai,20.0314,99.2842
Loreto,10.3586,125.5816
Ban Bueng Kok,16.6833,100.0333
Thap Khlo,16.16,100.5967
Ban Kang,18.5444,98.8889
Ban Dong Mada,19.7237,99.7153
Ban Lao Yao,18.3667,98.7833
Sabangan,17.0044,120.9233
Ban Nam Dip Luang,18.45,98.8333
Wiang Sa,8.6364,99.3683
Photharam,13.6918,99.8531
Ban Wiang Ka Long,19.2332,99.5165
Mae Rim,18.9163,98.9605
Basco,20.45,121.97
Ban Nong Tong,18.6115,98.9466
Kanchanadit,9.1653,99.4706
Corella,9.68,123.92
Ban Krot,14.3121,100.6005
Ban Sathan,18.2667,100.7167
Jantho,5.3,95.6333
Ban Bang Phlap,13.9241,100.4684
Ban San Pong,18.9424,98.9439
Santa Monica,10.02,126.038
An Châu,21.3333,106.85
Ngọc Sơn,21.35,106.0
Sa Pa,22.3356,103.8419
Ban Khi Lek,19.0625,98.9396
Concepcion,8.4167,123.6
Lubuagan,17.35,121.18
Bang Khla,13.7268,101.2105
Quirino,17.1383,120.6764
Ban Bo Phlap,13.8439,100.0686
Nakhon Thai,17.1011,100.8296
Almagro,11.9108,124.2852
Ban Son Loi,13.9122,100.42
Nong Kung Si,16.65,103.3
Pong Nam Ron,12.9057,102.2663
Ban Kham Pom,15.9653,105.2112
Ban Chang Phuak,18.8032,98.9811
Suwannaphum,15.6078,103.8
Ban Wat Chan,16.8033,100.2351
Ban Yaeng,16.8833,100.8
Ban Wang Krachae,14.2333,98.8667
Ban Tha Phra,16.3298,102.7998
Ban Ngio Ngam,17.6671,100.1754
Nhân Trạch,19.05,105.55
Manatuto,-8.5167,126.0167
Ban Wang Pradu,16.76,100.35
Akat Amnuai,17.5898,103.9859
Kaeng Khro,16.1086,102.2581
Burgos,16.525,120.4583
Tha Luang,15.0697,101.1182
Kosum Phisai,16.243,103.0627
Bayabas,8.9678,126.2817
Thung Sai,16.2955,99.8089
Ban Nikhom Phatthana,16.7242,99.9697
Thap Than,15.457,99.8959
Sai Ngam,16.4669,99.8902
Thị Trấn Đồng Đăng,21.9458,106.6967
Kui Buri,12.0702,99.8667
Ấp Tân Ngãi,10.2369,106.2878
San Antonio,12.414,124.279
Hunduan,16.83,121.0
Ban Pong Tao,18.8333,99.95
Ban Noen Kum Nueng,16.55,100.4167
Ban Muang Kham,19.5008,99.7466
Côn Đảo,8.6931,106.5767
Takua Pa,8.8658,98.3413
Ban Si Don Chai,20.13,100.3614
Kampong Tunah Jambu,4.9957,115.0019
Tagapul-an,12.05,124.15
Tlagasana,-7.1786,109.5057
Ban Sai Yoi,16.4167,100.6
Galela,1.8236,127.8431
Pa Mok,14.4921,100.4448
Tanudan,17.2814,121.2303
Nam Som,17.7694,102.1435
Gigmoto,13.78,124.38
San Sebastian,11.7,125.02
Phimai,15.2229,102.494
Yang Talat,16.3997,103.3678
Pa Sang,18.5261,98.9394
Wiang Haeng,19.55,98.65
Slateng Dua,-8.1324,113.9836
La Huerta,14.4972,120.9953
Ban Ratchakrut,9.7571,98.5915
Na Yung,17.9142,102.2403
Alfonso Castañeda,15.7933,121.3025
Ban Charoen Mueang,19.6075,99.7547
Ban Wat Phrik,16.746,100.275
Hernani,11.3239,125.6181
San Isidro,9.9369,126.0886
Gleno,-8.7239,125.4361
Sen Monorom,12.45,107.2
Luân Châu,21.74,103.343
Magugpo Poblacion,7.3821,125.8017
Mae Hong Son,19.3011,97.97
Viqueque,-8.85,126.3667
Liquiçá,-8.5935,125.3273
Bueng Kan,18.3254,103.6704
Kuala Belait,4.5828,114.1918
Ainaro,-8.9833,125.5
Same,-9.0,125.65
Sofifi,0.7244,127.5806
Tarutung,2.0167,98.9667
Bangar,4.7086,115.0739
Buton,4.217,108.2
Anouvông,18.8989,103.0919
Xékong,15.3503,106.7286
Phôn-Hông,18.4953,102.4153
Pili,13.7177,123.7448
Tabuk,17.4084,121.2785
San Jose,10.18,125.5683
Santa Cruz,14.1167,121.2833
Koronadal,6.2541,124.9922
Ban Huai Hin,12.5697,99.9443
Lospalos,-8.5167,127.0333
Aileu,-8.7281,125.5664
Pante Macassar,-9.2,124.3833
Suai,-9.3129,125.2565
Kon Tum,14.3544,108.0075
Đà Nẵng,16.0748,108.224
Tutong,4.8067,114.6592
Tanjung Selor,2.85,117.3833
Pailin,12.8489,102.6093
Ta Khmau,11.4833,104.95
